[
  {
    "name": "云南国酒茅台销售有限公司贵州茅台自营店",
    "address": "云南省昆明市西山区南亚风情第壹城星光苑7幢1-2层05-07室",
    "phone": "0871-64199509",
    "mapName": "贵州茅台(云南自营店)",
    "location": {
      "latitude": 25.042609,
      "longitude": 102.704206
    }
  },
  {
    "name": "昆明兴利商贸有限公司昆明市专卖店",
    "address": "云南省昆明市五华区虹山东路330-334号",
    "phone": "0871-65311267",
    "location": {
      "latitude": 25.045732,
      "longitude": 102.710315
    }
  },
  {
    "name": "昆明金花商贸有限公司昆明市专卖店",
    "address": "云南省昆明市五华区北正街2号俊园商铺3-4号",
    "phone": "0871-65189898",
    "location": {
      "latitude": 25.051423,
      "longitude": 102.712489
    }
  },
  {
    "name": "昆明树发经贸有限公司昆明市专卖店",
    "address": "云南省昆明市五华区西园北路与茭菱路交叉口茭菱花园7-14号商铺",
    "phone": "0871-68332163",
    "location": {
      "latitude": 25.046812,
      "longitude": 102.696578
    }
  },
  {
    "name": "云南东方糖酒有限公司",
    "address": "云南省昆明市五华区篆塘路007号趣昭A地块2号写字楼一楼商铺A3、A4号",
    "phone": "0871-65153236",
    "location": {
      "latitude": 25.049317,
      "longitude": 102.708624
    }
  },
  {
    "name": "昆明乾德酒业有限公司昆明市专卖店",
    "address": "云南省昆明市盘龙区江滨西路904幢C4号",
    "phone": "0871-65095636",
    "location": {
      "latitude": 25.052123,
      "longitude": 102.72698
    }
  },
  {
    "name": "昆明宏洋商贸有限公司昆明市专卖店",
    "address": "云南省昆明市盘龙区龙源路北辰财富中心长江小区7-33/34/35号商铺",
    "phone": "0871-6328899",
    "location": {
      "latitude": 25.058742,
      "longitude": 102.732418
    }
  },
  {
    "name": "昆明恒明实业有限公司昆明市专卖店",
    "address": "云南省昆明市滇池度假区滇池路西贡码头第7幢",
    "phone": "0871-65124018",
    "location": {
      "latitude": 24.982154,
      "longitude": 102.668512
    }
  },
  {
    "name": "昆明湘洋商贸有限公司昆明市专卖店",
    "address": "云南省昆明市西山区前福路润城八区S1Y1-01号",
    "phone": "0871-64668899",
    "location": {
      "latitude": 25.038754,
      "longitude": 102.687463
    }
  },
  {
    "name": "昆明品稷商贸有限公司昆明市专卖店",
    "address": "云南省昆明市日新东路润城第二大道5栋C栋109号",
    "phone": "0871-63926698",
    "location": {
      "latitude": 25.032987,
      "longitude": 102.693284
    }
  },
  {
    "name": "昆明永尚商贸有限公司昆明市专卖店",
    "address": "中国（云南）自由贸易试验区昆明片区官渡区春城路17号",
    "phone": "0871-63569946",
    "location": {
      "latitude": 25.018756,
      "longitude": 102.747361
    }
  },
  {
    "name": "昆明焕森嘉商贸有限公司",
    "address": "云南省昆明市官渡区国贸路778号万裕家园-四季华亭B座4号商铺",
    "phone": "0871-63819055",
    "location": {
      "latitude": 25.027463,
      "longitude": 102.752619
    }
  },
  {
    "name": "昆明鸿酱酒业有限公司",
    "address": "中国（云南）自由贸易试验区经开区阿拉街道",
    "phone": "0871-65143669",
    "location": {
      "latitude": 24.982314,
      "longitude": 102.828742
    }
  },
  {
    "name": "昆明旭嘉商贸有限公司",
    "address": "云南省昆明市呈贡区春融街上海东盟大厦A座1903室",
    "phone": "0871-67458658",
    "location": {
      "latitude": 24.885624,
      "longitude": 102.823754
    }
  },
  {
    "name": "香格里拉市南珠酒业有限公司安宁市专卖店",
    "address": "云南省昆明市安宁市连然街道办事处昆钢社区居民委员会百花西路40号",
    "phone": "0871-68619545",
    "location": {
      "latitude": 24.927463,
      "longitude": 102.473625
    }
  },
  {
    "name": "昆明轩鹤贸易有限公司昆明市专卖店",
    "address": "云南省昆明市晋宁区昆阳街道七彩云南・花城里（大观小院）35幢6号7号",
    "phone": "0871-67895959",
    "location": {
      "latitude": 24.673846,
      "longitude": 102.594738
    }
  },
  {
    "name": "云南滩滩酒业有限公司",
    "address": "云南省昆明市石林县鹿阜街道世纪阳光一期7幢18-21号商铺",
    "phone": "0871-67792019",
    "location": {
      "latitude": 24.772647,
      "longitude": 103.292638
    }
  },
  {
    "name": "昆明南云鑫酒坊有限公司",
    "address": "云南省昆明市宜良县南羊街道办多维街鹿窝路沂清园H-4-63号",
    "phone": "0871-67520920",
    "location": {
      "latitude": 24.912635,
      "longitude": 103.142837
    }
  },
  {
    "name": "昆明裕格商贸有限公司昆明市专卖店",
    "address": "云南省昆明市嵩明县嵩阳镇龙场107号（嘉玲园售楼处隔壁1层09号商铺）",
    "phone": "0871-67950979",
    "location": {
      "latitude": 25.332617,
      "longitude": 103.042837
    }
  },
  {
    "name": "曲靖翠香阁商贸有限公司",
    "address": "云南省曲靖市麒麟区太和街道小龙社区三组（越钢老年活动中心）第1-3层4号商铺",
    "phone": "0874-3956448",
    "location": {
      "latitude": 25.490829,
      "longitude": 103.796167
    }
  },
  {
    "name": "富源县智航商贸有限公司曲靖市专卖店",
    "address": "云南省曲靖市富源县中安街道金龙街249号",
    "phone": "0874-463178",
    "location": {
      "latitude": 25.672483,
      "longitude": 104.254736
    }
  },
  {
    "name": "大理金会计服务有限责任公司大理市专卖店",
    "address": "云南省大理白族自治州大理市下关苍山东路461号",
    "phone": "0872-219607",
    "location": {
      "latitude": 25.592765,
      "longitude": 100.267958
    }
  },
  {
    "name": "大理市泉源商贸有限责任公司",
    "address": "云南省大理白族自治州大理经济开发区建标华城龙溪路5幢19-20号",
    "phone": "0872-2330909",
    "location": {
      "latitude": 25.602473,
      "longitude": 100.294627
    }
  },
  {
    "name": "楚雄市天森商贸有限公司楚雄市专卖店",
    "address": "云南省楚雄市高新区彝风湿地文旅小镇滇派森林1栋2室2室",
    "phone": "0878-3388089",
    "location": {
      "latitude": 25.032909,
      "longitude": 101.546143
    }
  },
  {
    "name": "普洱市思茅区福华瀛商贸有限责任公司",
    "address": "云南省普洱市思茅区南屏镇茶苑路34号",
    "phone": "0879-2301006",
    "location": {
      "latitude": 22.788778,
      "longitude": 100.973227
    }
  },
  {
    "name": "昭通市祥和商贸有限公司昭通市专卖店",
    "address": "云南省昭通市昭阳区迎丰路鼎盛豪庭一期2幢23号商铺-SJG3、1-SJG4、1-SJG5商铺",
    "phone": "0870-2868599",
    "location": {
      "latitude": 27.336999,
      "longitude": 103.717216
    }
  },
  {
    "name": "文山宗云商贸有限公司文山市专卖店",
    "address": "云南省文山壮族苗族自治州文山市建民路高田流水小区22栋1-2号",
    "phone": "0876-2152089",
    "location": {
      "latitude": 23.386527,
      "longitude": 104.244277
    }
  },
  {
    "name": "蒙自同创商贸有限责任公司蒙自市专卖店",
    "address": "云南省红河州蒙自市文澜镇北大街中段四海水岸一期一排1栋S01-01号商铺",
    "phone": "0873-3809025",
    "location": {
      "latitude": 23.396201,
      "longitude": 103.385244
    }
  },
  {
    "name": "德宏州灿达有限责任公司芒市专卖店",
    "address": "云南省德宏州芒市芒罕路488号德宏印象-糊泉6号",
    "phone": "0692-2133928",
    "location": {
      "latitude": 24.433424,
      "longitude": 98.588434
    }
  },
  {
    "name": "怒江州君源经贸有限责任公司景洪市专卖店",
    "address": "云南省西双版纳傣族自治州景洪市勐泐大道东段东侧曼景法小区122-127号",
    "phone": "0691-2568899",
    "location": {
      "latitude": 22.009266,
      "longitude": 100.797941
    }
  },
  {
    "name": "富宁龙浩商贸有限公司",
    "address": "云南省玉溪市红塔区凤凰路98号",
    "phone": "0877-2298519",
    "location": {
      "latitude": 24.351975,
      "longitude": 102.543907
    }
  }
] 