[
  {
    "name": "昆明市五华区茅台专卖店",
    "address": "云南省昆明市五华区人民中路17号",
    "phone": "0871-63612345",
    "location": {
      "latitude": 25.042609,
      "longitude": 102.704206
    }
  },
  {
    "name": "昆明市五华区昆明全兴科技贸易有限公司昆明市专卖店",
    "address": "云南省昆明市五华区西园路1号-28B05-7楼",
    "phone": "0871-65312345",
    "location": {
      "latitude": 25.042609,
      "longitude": 102.704206
    }
  },
  {
    "name": "昆明市盘龙区昆明全兴科技贸易有限公司昆明市专卖店",
    "address": "云南省昆明市盘龙区北京路330-334号",
    "phone": "0871-65312678",
    "location": {
      "latitude": 25.052123,
      "longitude": 102.72698
    }
  },
  {
    "name": "昆明市五华区昆明荣誉贸易有限公司昆明市专卖店",
    "address": "云南省昆明市五华区南屏街文昌街及滨江路交叉口7-14号商铺",
    "phone": "0871-68332163",
    "location": {
      "latitude": 25.042609,
      "longitude": 102.704206
    }
  },
  {
    "name": "昆明市五华区云南方德商贸有限公司",
    "address": "云南省昆明市五华区昆明市600号银海A3地块2号学生一栋商铺A、A4号",
    "phone": "0871-65152326",
    "location": {
      "latitude": 25.042609,
      "longitude": 102.704206
    }
  },
  {
    "name": "昆明市盘龙区昆明德福酒业有限公司昆明市专卖店",
    "address": "云南省昆明市盘龙区北京路银都广场1幢1-2/1-6/1-7商铺",
    "phone": "0871-65095636",
    "location": {
      "latitude": 25.052123,
      "longitude": 102.72698
    }
  },
  {
    "name": "大理白族自治州茅台专卖店",
    "address": "云南省大理白族自治州大理市下关镇人民路45号",
    "phone": "0872-21234567",
    "location": {
      "latitude": 25.592765,
      "longitude": 100.267958
    }
  },
  {
    "name": "大理白族自治州大理市云南瑞丰商贸有限公司专卖店",
    "address": "云南省大理白族自治州大理市洱河南路与建设路交叉口",
    "phone": "0872-21234568",
    "location": {
      "latitude": 25.592765,
      "longitude": 100.267958
    }
  },
  {
    "name": "丽江市古城区茅台经销商",
    "address": "云南省丽江市古城区七一街124号",
    "phone": "0888-51234567",
    "location": {
      "latitude": 26.872108,
      "longitude": 100.234563
    }
  },
  {
    "name": "丽江市古城区丽江市古城区云南鼎益商贸有限公司专卖店",
    "address": "云南省丽江市古城区香格里大道219号",
    "phone": "0888-51234568",
    "location": {
      "latitude": 26.872108,
      "longitude": 100.234563
    }
  },
  {
    "name": "西双版纳傣族自治州茅台专卖店",
    "address": "云南省西双版纳傣族自治州景洪市允景洪大街56号",
    "phone": "0691-21234567",
    "location": {
      "latitude": 22.009266,
      "longitude": 100.797941
    }
  },
  {
    "name": "西双版纳傣族自治州景洪市云南瑞丰商贸有限公司专卖店",
    "address": "云南省西双版纳傣族自治州景洪市勐泐大道4号",
    "phone": "0691-21234568",
    "location": {
      "latitude": 22.009266,
      "longitude": 100.797941
    }
  },
  {
    "name": "昭通市昭阳区茅台专卖店",
    "address": "云南省昭通市昭阳区昭通大道168号",
    "phone": "0870-21234567",
    "location": {
      "latitude": 27.336999,
      "longitude": 103.717216
    }
  },
  {
    "name": "曲靖市麒麟区茅台专卖店",
    "address": "云南省曲靖市麒麟区麒麟西路78号",
    "phone": "0874-31234567",
    "location": {
      "latitude": 25.490829,
      "longitude": 103.796167
    }
  },
  {
    "name": "玉溪市红塔区茅台专卖店",
    "address": "云南省玉溪市红塔区玉兴路45号",
    "phone": "0877-21234567",
    "location": {
      "latitude": 24.351975,
      "longitude": 102.543907
    }
  }
] 